City_ID,City,lat,Lng,Max Temp,Humidity,Cloudiness,Wind Speed,Country,Date
0,boende,-0.2167,20.8667,296.01,93,100,0.68,CD,1695845230
1,tambacounda,13.7539,-13.7586,305.18,74,0,1.03,SN,1695845230
2,ushuaia,-54.8,-68.3,278.96,45,0,8.23,AR,1695845231
3,yarmouth,41.7057,-70.2286,291.23,73,0,6.26,US,1695845231
4,codrington,-38.2667,141.9667,280.56,96,24,3.62,AU,1695845108
5,waitangi,-43.9535,-176.5597,284.16,97,94,3.58,NZ,1695845231
6,west island,-12.1568,96.8225,298.14,83,75,4.12,CC,1695845232
7,kstovo,56.1473,44.1979,278.81,75,9,1.09,RU,1695845232
8,bethel,41.3712,-73.414,294.03,58,0,4.63,US,1695845092
9,atafu village,-8.5421,-172.5159,301.29,78,25,4.42,TK,1695845118
10,stanley,54.868,-1.6985,289.92,89,75,4.12,GB,1695845065
11,terrace,54.5163,-128.6035,284.94,91,100,1.38,CA,1695845233
12,hermanus,-34.4187,19.2345,286.14,82,0,6.25,ZA,1695845082
13,ivolginsk,51.7492,107.2837,280.96,93,75,2.0,RU,1695845233
14,tiksi,71.6872,128.8694,271.26,80,100,3.2,RU,1695845108
15,saipan,15.1355,145.701,301.54,78,40,3.09,MP,1695845234
16,llallagua,-18.4167,-66.6333,288.56,34,59,4.74,BO,1695845234
17,avarua,-21.2078,-159.775,297.18,83,26,6.17,CK,1695845116
18,stornoway,58.2093,-6.3865,286.13,91,75,8.23,GB,1695845234
19,puerto natales,-51.7236,-72.4875,278.4,65,40,2.06,CL,1695845099
20,ivanteyevka,55.9711,37.9208,286.59,71,100,0.45,RU,1695845235
21,port-aux-francais,-49.35,70.2167,274.91,69,76,13.51,TF,1695845081
22,talnakh,69.4865,88.3972,269.38,87,51,2.35,RU,1695845097
23,belyy yar,53.6039,91.3903,273.09,93,0,0.0,RU,1695845235
24,dzuunmod,48.2199,97.3744,267.84,89,100,1.73,MN,1695845236
25,prince rupert,54.3161,-130.3201,283.55,92,100,2.31,CA,1695845236
26,utrik,11.2278,169.8474,301.65,77,98,5.56,MH,1695845113
27,remire-montjoly,4.9167,-52.2667,303.17,70,0,4.63,GF,1695845156
28,grytviken,-54.2811,-36.5092,273.9,80,4,4.0,GS,1695845237
29,margaret river,-33.95,115.0667,288.25,85,15,4.41,AU,1695844929
30,kuala terengganu,5.3302,103.1408,298.94,86,100,1.28,MY,1695845237
31,edinburgh of the seven seas,-37.0676,-12.3116,285.15,64,57,13.26,SH,1695845107
32,zumpango del rio,17.65,-99.5,301.35,51,0,1.27,MX,1695845238
33,adamstown,-25.066,-130.1015,294.08,64,100,3.16,PN,1695845238
34,tazovsky,67.4667,78.7,273.46,99,100,4.32,RU,1695845151
35,albany,42.6001,-73.9662,294.77,54,100,0.45,US,1695844808
36,brigantine,39.4101,-74.3646,292.7,65,20,8.75,US,1695845239
37,olonkinbyen,70.9221,-8.7187,276.62,96,100,10.05,SJ,1695845131
38,haiku-pauwela,20.9219,-156.3051,301.16,54,20,9.26,US,1695845213
39,west samoset,27.4695,-82.5568,304.9,66,0,4.63,US,1695845239
40,namibe,-15.1961,12.1522,292.42,86,100,1.97,AO,1695845134
41,zhob,31.3411,69.4481,293.66,8,0,1.2,PK,1695845240
42,port elizabeth,-33.918,25.5701,287.31,79,75,2.06,ZA,1695845005
43,cam ranh,11.9214,109.1591,299.13,89,40,0.51,VN,1695845240
44,hawaiian paradise park,19.5933,-154.9731,299.88,78,40,0.45,US,1695845090
45,el calafate,-50.3408,-72.2768,276.3,91,100,0.34,AR,1695845171
46,taulaga,-11.0553,-171.0883,300.79,81,41,8.89,AS,1695845241
47,cabo san lucas,22.8909,-109.9124,310.16,68,0,3.58,MX,1695845096
48,isafjordur,66.0755,-23.124,277.25,98,100,5.42,IS,1695845087
49,uacu cungo,-11.3634,15.1208,294.85,71,12,1.66,AO,1695845241
50,lingsugur,16.1667,76.5167,298.04,80,98,5.56,IN,1695845242
51,bredasdorp,-34.5322,20.0403,285.05,87,0,4.15,ZA,1695845093
52,polyarnyy,69.1989,33.4478,281.97,93,100,2.45,RU,1695845242
53,east london,-33.0153,27.9116,289.39,69,100,7.25,ZA,1695845242
54,figuig (centre),32.1089,-1.2286,300.09,22,0,2.08,MA,1695845243
55,wajir,1.7471,40.0573,301.98,49,5,10.11,KE,1695845243
56,nasiriyah,31.0521,46.261,306.72,14,0,3.17,IQ,1695845243
57,nova sintra,14.8667,-24.7167,296.47,81,98,8.2,CV,1695845243
58,avellaneda,-29.1176,-59.6583,294.2,36,0,4.95,AR,1695845244
59,la passe,45.5549,-0.8967,293.28,85,100,3.28,FR,1695845244
60,jamestown,42.097,-79.2353,293.92,36,100,4.12,US,1695845244
61,grand falls-windsor,48.9332,-55.6649,289.54,72,0,4.32,CA,1695845203
62,chonchi,-42.6128,-73.8092,283.71,77,35,4.68,CL,1695845100
63,yellowknife,62.456,-114.3525,283.38,98,100,3.09,CA,1695844811
64,port lincoln,-34.7333,135.8667,285.6,79,0,2.65,AU,1695845119
65,port macquarie,-31.4333,152.9167,289.76,84,97,3.2,AU,1695845200
66,vung tau,10.346,107.0843,299.54,85,100,3.17,VN,1695845245
67,peniche,39.3558,-9.3811,293.75,90,24,2.95,PT,1695845245
68,ribeira grande,38.5167,-28.7,296.91,94,40,8.75,PT,1695845086
69,tonghua,41.7201,125.9219,283.2,82,0,0.53,CN,1695845246
70,raduzhny,62.0961,77.475,280.96,58,100,2.32,RU,1695845246
71,al muwayh,22.4333,41.7583,302.72,13,76,4.91,SA,1695845246
72,portage la prairie,49.9728,-98.2926,294.32,45,87,8.28,CA,1695845247
73,saint-pierre,-21.3393,55.4781,295.97,73,0,8.23,RE,1695845159
74,whitehorse,60.7161,-135.0538,281.38,95,100,0.45,CA,1695844970
75,arraial do cabo,-22.9661,-42.0278,299.07,78,75,2.57,BR,1695845247
76,angaur state,6.906,134.13,301.34,82,99,8.29,PW,1695845247
77,aykhal,66.0,111.5,271.91,86,30,5.63,RU,1695845140
78,carutapera,-1.195,-46.02,301.57,67,15,4.93,BR,1695845248
79,tezu,27.9167,96.1667,298.02,77,8,1.41,IN,1695845248
80,hukumati azrah,34.1736,69.6457,285.89,52,0,1.96,AF,1695845248
81,anqing,30.5092,117.0506,296.16,90,11,2.3,CN,1695845248
82,ilulissat,69.2167,-51.1,276.16,52,75,5.14,GL,1695845100
83,papatowai,-46.5619,169.4708,281.39,86,100,5.59,NZ,1695845112
84,la punta,-33.1837,-66.3127,296.34,7,0,6.33,AR,1695845249
85,keflavik,64.0049,-22.5624,284.1,87,75,3.09,IS,1695845094
86,conde,-7.2597,-34.9075,299.85,69,20,4.12,BR,1695845091
87,ingeniero jacobacci,-41.3427,-69.5448,283.15,46,100,14.22,AR,1695845250
88,prado,-17.3411,-39.2208,299.12,74,24,9.15,BR,1695845150
89,glace bay,46.1969,-59.957,288.09,83,0,0.45,CA,1695845250
90,port alfred,-33.5906,26.891,286.03,95,100,2.24,ZA,1695845171
91,aktau,43.65,51.2,289.47,45,0,1.76,KZ,1695845251
92,invercargill,-46.4,168.35,280.94,97,91,3.13,NZ,1695845084
93,tosontsengel,48.7567,98.2839,270.81,87,100,2.65,MN,1695845251
94,vrangel',42.7297,133.0839,289.74,88,100,1.76,RU,1695845251
95,paradip garh,20.3167,86.6167,300.72,82,99,2.93,IN,1695845251
96,ornskoldsvik,63.2909,18.7153,284.68,100,75,2.57,SE,1695845252
97,hithadhoo,-0.6,73.0833,300.26,77,100,2.57,MV,1695845159
98,afaahiti,-17.75,-149.2833,299.08,86,1,5.69,PF,1695845175
99,port saint john's,-31.6229,29.5448,290.81,64,97,5.18,ZA,1695845253
100,hays,30.0502,-98.0336,307.89,40,75,0.89,US,1695845253
101,puerto ayora,-0.7393,-90.3518,301.13,89,79,4.47,EC,1695845110
102,valle hermoso,25.6667,-97.8333,310.09,30,1,3.18,MX,1695845104
103,puerto carreno,6.189,-67.4859,308.03,46,22,0.85,CO,1695845254
104,longyearbyen,78.2186,15.6401,265.06,73,20,3.09,SJ,1695845102
105,shingu,33.7333,135.9833,296.17,89,3,2.39,JP,1695845254
106,waajid,3.8096,43.2463,299.13,67,41,9.09,SO,1695845254
107,batu pahat,1.8548,102.9325,297.44,85,41,2.77,MY,1695845254
108,dhuusamarreeb,5.535,46.3861,300.04,67,91,8.95,SO,1695845255
109,petropavlovsk-kamchatsky,53.0452,158.6483,272.48,86,0,4.0,RU,1695845180
110,iglino,54.8324,56.4126,281.2,67,93,1.76,RU,1695845255
111,flying fish cove,-10.4217,105.6791,296.97,88,100,5.66,CX,1695845255
112,bubaque,11.2833,-15.8333,301.43,80,2,4.27,GW,1695845256
113,mil'kovo,55.6078,37.7956,286.51,66,74,1.12,RU,1695845256
114,blackmans bay,-43.0167,147.3167,284.55,77,39,2.49,AU,1695845082
115,san juan de miraflores,-12.1629,-76.9635,293.44,77,93,3.56,PE,1695845257
116,karaidel',55.8337,56.9069,281.15,82,58,0.95,RU,1695845257
117,stadskanaal,52.9833,6.95,292.08,83,100,1.79,NL,1695845121
118,saldanha,-33.0117,17.9442,286.18,72,0,2.91,ZA,1695845086
119,vlasim,49.7063,14.8988,291.91,63,23,2.9,CZ,1695845258
120,horta,38.5333,-28.6333,295.95,92,40,8.75,PT,1695845258
121,iqaluit,63.7506,-68.5145,276.0,74,40,11.32,CA,1695845131
122,wailua homesteads,22.0669,-159.378,300.39,82,96,4.47,US,1695845085
123,colby,39.3958,-101.0524,302.04,39,0,8.23,US,1695845173
124,katsuren-haebaru,26.3369,127.8719,301.16,94,20,2.57,JP,1695845259
125,yulinshi,38.2906,109.7494,288.57,36,95,0.62,CN,1695845259
126,les cayes,18.2,-73.75,303.39,70,65,1.89,HT,1695845259
127,totness,5.8833,-56.3167,303.5,66,83,5.65,SR,1695845259
128,campbellton,48.0075,-66.6727,294.17,55,6,2.28,CA,1695845260
129,palikir - national government center,6.9248,158.1611,297.56,100,100,1.54,FM,1695845260
130,hrodna,53.6884,23.8258,290.52,67,1,3.58,BY,1695845260
131,georgetown,5.4112,100.3354,300.38,92,20,0.0,MY,1695845103
132,thompson,55.7435,-97.8558,294.24,60,75,5.14,CA,1695845087
133,nuuk,64.1835,-51.7216,276.49,87,75,2.06,GL,1695845110
134,glendive,47.1053,-104.7125,295.47,64,0,2.57,US,1695845261
135,college,64.8569,-147.8028,275.41,81,100,0.0,US,1695845094
136,kiffa,16.6166,-11.4045,309.94,31,59,2.6,MR,1695845261
137,mongar,27.2747,91.2396,288.89,89,0,2.37,BT,1695845261
138,burang,30.25,81.1667,277.96,62,3,1.42,CN,1695845262
139,zhangatas,43.5667,69.75,289.09,40,0,1.56,KZ,1695845262
140,bamboo flat,11.7,92.7167,299.7,84,100,9.41,IN,1695845262
141,kasulu,-4.5767,30.1025,296.45,59,91,1.65,TZ,1695845262
142,al mijlad,11.0333,27.7333,301.83,59,59,4.12,SD,1695845263
143,sisimiut,66.9395,-53.6735,276.4,93,100,2.33,GL,1695845142
144,st. john's,47.5649,-52.7093,284.08,77,100,6.69,CA,1695845135
145,anadyr,64.75,177.4833,277.43,93,40,4.0,RU,1695844878
146,mount vernon,40.9126,-73.8371,293.23,60,75,5.66,US,1695845264
147,necochea,-38.5473,-58.7368,290.44,55,8,3.84,AR,1695845158
148,sumenep,-7.0167,113.8667,298.99,80,43,6.14,ID,1695845264
149,tromso,69.6496,18.957,282.16,87,0,0.0,NO,1695845178
150,kouango,4.9934,19.9619,294.38,92,99,1.7,CF,1695845264
151,pisco,-13.7,-76.2167,294.18,68,40,6.17,PE,1695845087
152,namtsy,62.7161,129.6658,277.18,91,99,2.01,RU,1695845265
153,constantia,44.1833,28.65,292.53,69,52,7.33,RO,1695845203
154,juan de ayolas,-27.4,-56.9,291.99,59,10,5.55,PY,1695845265
155,piti village,13.4626,144.6933,299.64,91,40,0.0,GU,1695845265
156,arinos,-15.9169,-46.1056,309.39,25,48,3.03,BR,1695845266
157,am timan,11.0297,20.2827,294.74,90,100,4.69,TD,1695845266
158,visakhapatnam,17.69,83.2093,300.09,100,75,1.03,IN,1695845266
159,kavaratti,10.5669,72.642,301.26,77,99,6.77,IN,1695845091
160,ciudad lazaro cardenas,17.9583,-102.2,304.04,66,8,4.85,MX,1695845267
161,tan-tan,28.438,-11.1032,294.04,90,38,5.19,MA,1695845267
162,belomorsk,64.5232,34.7668,285.48,89,100,3.75,RU,1695845267
163,escarcega,18.6089,-90.7454,302.74,69,99,2.45,MX,1695845268
164,picota,-6.9197,-76.3304,311.42,33,30,2.13,PE,1695845268
165,selfoss,63.9331,-20.9971,283.17,89,89,2.78,IS,1695845268
166,amos,48.5669,-78.1162,292.62,33,0,1.61,CA,1695845241
167,brisas barra de suchiate,14.55,-92.2167,306.25,70,11,4.13,MX,1695845269
168,vakarai,55.6035,23.8213,287.44,62,54,3.07,LT,1695845269
169,uturoa,-16.7333,-151.4333,298.79,78,15,8.99,PF,1695845146
170,meridian,43.6121,-116.3915,294.23,41,20,4.12,US,1695845269
171,daru,-9.0763,143.2092,297.77,85,100,7.33,PG,1695845270
172,luga,58.7372,29.8453,286.98,83,44,3.02,RU,1695845270
173,qui nhon,13.7667,109.2333,299.12,83,97,2.39,VN,1695845270
174,forster,-32.1667,152.5167,288.36,100,85,2.99,AU,1695845270
175,lompoc,34.6391,-120.4579,305.94,52,20,9.26,US,1695845166
176,macae,-22.3708,-41.7869,300.39,72,94,5.19,BR,1695845271
177,santa cruz,-17.8,-63.1667,298.18,50,75,7.72,BO,1695845031
178,northam,51.0333,-4.2167,289.63,93,92,12.94,GB,1695845271
179,nantucket,41.2835,-70.0995,292.18,73,0,8.23,US,1695845271
180,kingston,17.997,-76.7936,306.68,76,40,4.63,JM,1695845139
181,san patricio,28.017,-97.5169,309.12,38,92,4.17,US,1695845172
182,aasiaat,68.7098,-52.8699,273.76,69,100,0.06,GL,1695845152
183,irtyshsk,53.3333,75.4572,284.4,77,98,3.66,KZ,1695845272
184,tionk essil,12.7856,-16.5217,299.96,86,68,2.81,SN,1695845272
185,qaqortoq,60.7167,-46.0333,274.89,91,100,6.38,GL,1695845110
186,makaha,21.4694,-158.2175,301.1,83,100,3.6,US,1695845273
187,kiama,-34.6833,150.8667,289.47,95,79,2.46,AU,1695845154
188,bireun,5.203,96.7009,298.54,86,100,1.7,ID,1695845273
189,howrah,22.5892,88.3103,302.15,89,40,2.57,IN,1695845178
190,karratha,-20.7377,116.8463,300.76,33,31,4.44,AU,1695845150
191,bikenibeu village,1.3673,173.1241,303.13,79,20,1.03,KI,1695845274
192,vieux fort,13.7167,-60.95,302.77,74,40,2.57,LC,1695845274
193,belmonte,-15.8631,-38.8828,299.04,74,6,7.12,BR,1695845135
194,lucapa,-8.4192,20.7447,295.86,74,100,0.73,AO,1695845275
195,meybod,32.2501,54.0166,295.16,25,5,3.16,IR,1695845275
196,tadine,-21.55,167.8833,293.03,59,33,5.53,NC,1695845155
197,myeik,12.4333,98.6,298.95,93,100,6.74,MM,1695845276
198,udachny,66.4167,112.4,275.07,80,65,7.08,RU,1695845081
199,brusyliv,50.2845,29.5263,287.66,59,1,3.02,UA,1695845276
200,gummi,12.1436,5.1081,303.54,57,100,3.8,NG,1695845276
201,bolivar,37.6145,-93.4105,301.56,62,68,4.86,US,1695845121
202,kaifeng,34.7911,114.3483,289.55,88,0,1.52,CN,1695845276
203,chibougamau,49.9168,-74.3659,292.45,31,0,0.74,CA,1695845204
204,moussoro,13.6408,16.4901,308.74,17,6,0.4,TD,1695845277
205,vorgashor,67.5833,63.95,273.21,86,100,1.47,RU,1695845196
206,nabire,-3.3667,135.4833,297.62,93,99,1.83,ID,1695845277
207,nar'yan-mar,67.6713,53.087,282.51,93,100,6.89,RU,1695845278
208,rio grande,-32.035,-52.0986,290.21,75,27,7.54,BR,1695844919
209,masuguru,-11.3667,38.4167,299.19,56,93,4.15,TZ,1695845278
210,fort mcmurray,56.7268,-111.381,293.92,40,20,4.12,CA,1695844842
211,lebu,-37.6167,-73.65,285.49,76,100,2.97,CL,1695845149
212,ostersund,63.1792,14.6357,282.4,93,0,4.63,SE,1695845279
213,portland,45.5234,-122.6762,290.57,82,100,6.26,US,1695844888
214,arawa,-6.2132,155.5367,297.82,94,100,1.55,PG,1695845279
215,ola,59.5833,151.2833,277.01,82,67,1.67,RU,1695845279
216,kourou,5.1552,-52.6478,303.18,69,33,5.27,GF,1695845280
217,puerto san jose,13.9256,-90.8244,304.3,68,94,4.75,GT,1695845280
218,kristiansund,63.1115,7.732,285.51,87,75,2.06,NO,1695845196
219,riyadh,24.6877,46.7219,304.23,13,0,4.68,SA,1695845103
220,bataipora,-22.2953,-53.2711,304.1,42,43,5.12,BR,1695845280
221,fort st. john,56.2499,-120.8529,284.09,76,100,3.6,CA,1695845267
222,hami,42.8,93.45,286.99,26,0,2.87,CN,1695845281
223,sao jose da coroa grande,-8.8978,-35.1478,298.6,73,84,4.1,BR,1695845281
224,natchez,31.5604,-91.4032,307.18,38,0,3.6,US,1695845282
225,saint-georges,12.0564,-61.7485,302.82,63,0,1.91,GD,1695845282
226,touros,-5.1989,-35.4608,299.42,65,7,4.97,BR,1695845101
227,balasore,21.4942,86.9317,299.62,86,80,3.01,IN,1695845282
228,sudak,44.85,34.9667,293.95,58,14,6.53,UA,1695845283
229,dudinka,69.4058,86.1778,269.61,81,14,3.69,RU,1695845115
230,boysun,38.2061,67.1986,287.66,32,98,2.11,UZ,1695845283
231,east ballina,-28.8667,153.5833,292.48,88,71,3.06,AU,1695845283
232,urangan,-25.3,152.9,292.16,78,1,4.47,AU,1695845284
233,al hada,21.3675,40.2869,298.49,39,44,2.47,SA,1695845284
234,kanigiri,15.4,79.5167,303.51,60,100,1.26,IN,1695845284
235,mahibadhoo,3.7833,72.9667,299.16,83,100,6.12,MV,1695845284
236,akureyri,65.6835,-18.0878,279.11,87,100,3.09,IS,1695845018
237,isoka,-10.1606,32.6335,294.77,46,26,1.69,ZM,1695845285
238,turkmenbasy,40.0222,52.9552,294.47,37,0,3.27,TM,1695845285
239,enterprise,36.0252,-115.2419,306.84,15,20,2.57,US,1695845116
240,port douglas,-16.4833,145.4667,295.32,73,82,6.94,AU,1695845285
241,kapuskasing,49.4169,-82.4331,293.15,42,0,3.6,CA,1695844806
242,marka,1.7159,44.7717,298.78,90,5,6.74,SO,1695845286
243,luderitz,-26.6481,15.1594,295.19,34,0,3.92,NA,1695845286
244,brisas de zicatela,15.8369,-97.0419,305.44,58,20,4.12,MX,1695845287
245,okhotsk,59.3833,143.3,277.88,81,97,1.14,RU,1695845083
246,kodiak,57.79,-152.4072,282.88,43,0,5.14,US,1695845179
247,dwarka,22.2394,68.9678,300.03,75,25,4.37,IN,1695845287
248,new norfolk,-42.7826,147.0587,285.21,83,84,1.77,AU,1695845179
249,egilsstadir,65.2653,-14.3948,278.1,93,40,3.09,IS,1695845190
250,yuzhne,46.6221,31.1013,293.58,47,0,4.72,UA,1695845288
251,ratnagiri,16.9833,73.3,298.58,89,100,2.0,IN,1695845288
252,tuchkovo,55.6011,36.4681,282.04,75,2,1.28,RU,1695845288
253,preobrazheniye,42.9019,133.9064,288.79,87,90,1.32,RU,1695845289
254,barranca,-10.75,-77.7667,293.52,74,68,4.78,PE,1695845289
255,nguigmi,14.2495,13.1092,305.4,30,6,3.32,NE,1695845289
256,enewetak,11.3474,162.3373,301.21,79,98,5.53,MH,1695845111
257,yarkovo,57.4028,67.0786,283.49,88,100,2.12,RU,1695845290
258,tolanaro,-25.0319,46.9987,296.19,83,20,11.83,MG,1695845082
259,centerville,39.6284,-84.1594,294.14,85,100,3.6,US,1695845290
260,usinsk,65.9939,57.5281,277.29,91,26,4.0,RU,1695845199
261,bhaisa,19.1,77.9667,297.01,93,100,1.22,IN,1695845291
262,ancud,-41.8697,-73.8203,282.96,77,29,8.37,CL,1695845155
263,beira,-19.8436,34.8389,296.2,88,0,5.66,MZ,1695845291
264,nikolayevsk-on-amure,53.1406,140.73,284.38,99,100,1.78,RU,1695845291
265,cheria,35.2731,7.7519,290.65,60,20,4.76,DZ,1695845291
266,bilibino,68.0546,166.4372,272.72,98,100,3.41,RU,1695845115
267,nicoya,10.1483,-85.452,302.38,77,98,2.09,CR,1695845292
268,weno,7.4515,151.8468,299.12,94,100,4.12,FM,1695845119
269,klyuchi,52.2667,79.1667,283.6,54,100,4.02,RU,1695845113
270,bambanglipuro,-7.95,110.2833,295.64,92,93,2.04,ID,1695845292
271,persembe,41.0656,37.7714,292.83,90,0,1.37,TR,1695845293
272,steffisburg,46.7781,7.6325,288.62,82,0,0.89,CH,1695845293
273,iskateley,67.6803,53.1512,282.47,93,100,6.9,RU,1695845099
274,saint-philippe,-21.3585,55.7679,295.92,80,39,6.41,RE,1695845183
275,colonia,50.9333,6.95,293.61,72,0,2.57,DE,1695844922
276,port mathurin,-19.6833,63.4167,295.61,78,55,7.73,MU,1695845092
277,fisterra,42.9049,-9.2629,293.72,93,100,4.49,ES,1695845130
278,ismayilli,40.779,48.1638,284.55,56,7,1.88,AZ,1695845294
279,pangody,65.85,74.4859,277.97,96,100,4.33,RU,1695845187
280,keetmanshoop,-26.5833,18.1333,290.7,20,0,5.04,NA,1695845294
281,magadan,59.5667,150.8,272.89,89,65,1.39,RU,1695845133
282,ihosy,-22.4,46.1167,289.52,82,31,4.52,MG,1695845295
283,vorkuta,67.5,64.0,273.55,85,100,1.66,RU,1695845167
284,kasempa,-13.4584,25.8338,297.82,39,98,1.4,ZM,1695845295
285,mersa matruh,31.3525,27.2453,299.09,76,0,2.58,EG,1695845295
286,kuloy,61.0305,42.4925,283.18,90,100,2.24,RU,1695845296
287,guilin,25.2819,110.2864,296.91,88,16,1.49,CN,1695845296
288,irece,-11.3042,-41.8558,307.59,21,20,4.71,BR,1695845165
289,novi petrivtsi,50.6224,30.4451,289.36,46,2,2.72,UA,1695845296
290,lorengau,-2.0226,147.2712,299.78,85,100,3.79,PG,1695845086
291,woolgoolga,-30.1106,153.2007,292.08,83,89,4.29,AU,1695845297
292,itamaraca,-7.7478,-34.8256,300.18,70,100,4.23,BR,1695845215
293,nuku'alofa,-21.1333,-175.2,298.34,78,40,5.14,TO,1695845297
294,timimoun,29.2639,0.231,304.14,15,0,9.54,DZ,1695845205
295,alto araguaia,-17.3147,-53.2153,308.29,23,71,5.05,BR,1695845298
296,chinde,26.8418,88.0763,291.23,84,2,2.08,NP,1695845298
297,korla,41.7597,86.1469,290.37,39,5,3.56,CN,1695845299
298,goondiwindi,-28.55,150.3167,291.58,27,89,4.44,AU,1695845299
299,tucuma,-0.1833,-50.05,303.53,61,78,4.9,BR,1695845142
300,taksimo,56.3444,114.8794,281.59,69,100,1.69,RU,1695845299
301,juruti,-2.1522,-56.0922,311.63,28,17,2.92,BR,1695845299
302,nemuro,43.3236,145.575,289.74,85,100,4.18,JP,1695845157
303,lihue,21.9789,-159.3672,300.73,81,94,6.8,US,1695845136
304,oranjemund,-28.55,16.4333,291.61,47,0,5.66,NA,1695845300
305,moab,38.5733,-109.5498,305.09,15,0,2.93,US,1695845075
306,salym,60.0625,71.4789,280.68,85,100,2.85,RU,1695845300
307,ghat,24.9647,10.1728,304.88,18,86,1.63,LY,1695845301
308,vilyuysk,63.7553,121.6247,277.34,74,81,2.67,RU,1695845153
309,butembo,0.15,29.2833,288.23,98,100,0.8,CD,1695845301
310,kingscliff,-28.2667,153.5667,290.24,94,100,0.0,AU,1695845301
311,ust-nera,64.5667,143.2,276.51,96,100,3.54,RU,1695845179
312,shwebo,22.5667,95.7,299.61,88,61,1.87,MM,1695845302
313,es castell,39.8795,4.2854,295.53,73,0,1.54,ES,1695845302
314,hilo,19.7297,-155.09,300.16,69,40,1.79,US,1695845303
315,dobrich,43.5667,27.8333,293.2,63,57,5.33,BG,1695845303
316,waingapu,-9.6567,120.2641,296.91,84,8,2.39,ID,1695845138
317,nadi,-17.8,177.4167,299.15,78,20,3.09,FJ,1695845303
318,masterton,-40.9597,175.6575,282.53,96,100,0.6,NZ,1695845303
319,yermakovskoye,53.2831,92.4003,275.39,86,5,1.1,RU,1695845177
320,bodinayakkanur,10.0167,77.35,296.47,84,100,2.81,IN,1695845304
321,fort bragg,35.139,-79.006,293.9,72,100,5.66,US,1695845103
322,geraldton,-28.7667,114.6,294.38,73,90,3.6,AU,1695845139
323,kas,36.2018,29.6377,298.57,59,82,1.96,TR,1695845305
324,karasburg,-28.0167,18.75,288.9,26,0,4.62,NA,1695845305
325,coahuayana de hidalgo,18.7,-103.6583,305.9,61,36,3.19,MX,1695845216
326,vejle,55.7093,9.5357,290.55,89,93,3.17,DK,1695845305
327,dingwall,57.5953,-4.4272,286.97,87,100,5.17,GB,1695845305
328,luban,51.1201,15.2877,291.67,60,66,2.64,PL,1695845306
329,chemax,20.65,-87.9333,307.15,48,90,1.18,MX,1695845306
330,carnarvon,-24.8667,113.6333,293.24,87,57,6.02,AU,1695845121
331,pacocha,-17.5833,-71.3333,292.23,73,100,3.09,PE,1695845307
332,ulladulla,-35.35,150.4667,288.02,89,100,1.09,AU,1695845076
333,tashtyp,52.7939,89.8983,274.68,88,0,0.96,RU,1695845307
334,palu,-0.8917,119.8707,297.15,93,88,1.69,ID,1695845307
335,conselheiro pena,-19.1722,-41.4722,311.81,25,61,1.09,BR,1695845308
336,scarborough,54.2797,-0.4044,290.91,88,96,1.79,GB,1695845308
337,banda aceh,5.5577,95.3222,299.27,85,100,5.78,ID,1695845308
338,sotouboua,8.5667,0.9833,298.16,89,13,1.27,TG,1695845308
339,rongelap,11.1635,166.8941,300.07,80,100,1.5,MH,1695845309
340,zarghun shahr,32.8473,68.4457,284.54,16,0,2.53,AF,1695845309
341,puerto deseado,-47.7503,-65.8938,285.29,50,100,2.96,AR,1695845309
342,key west,24.5557,-81.7826,304.15,77,75,2.57,US,1695845086
343,taroa,8.7058,171.2275,301.21,79,70,4.38,MH,1695845310
344,el granada,37.5027,-122.4694,300.71,63,0,7.2,US,1695845310
345,kailua-kona,19.6406,-155.9956,302.19,73,20,4.12,US,1695845310
346,aljezur,37.3191,-8.8033,292.32,80,15,3.38,PT,1695845311
347,xinji,37.9028,115.2036,289.64,88,0,0.94,CN,1695845311
348,noyabrsk,63.1994,75.4507,279.4,77,100,4.02,RU,1695845203
349,regina,50.4501,-104.6178,295.21,43,75,2.06,CA,1695845108
350,vila franca do campo,37.7167,-25.4333,296.38,90,55,6.59,PT,1695845177
351,chissamba,-12.1667,17.3333,295.3,49,51,1.82,AO,1695845312
352,gadzhiyevo,69.2551,33.3362,281.59,94,100,3.04,RU,1695845196
353,sungai penuh,-2.0833,101.3833,290.17,91,16,1.27,ID,1695845244
354,kamogawa,35.1,140.1,297.11,93,16,1.66,JP,1695845312
355,port augusta,-32.5,137.7667,282.4,72,0,2.47,AU,1695845313
356,tsiombe,-25.3,45.4833,294.04,84,63,1.87,MG,1695845313
357,yemva,62.59,50.8594,282.81,93,48,3.34,RU,1695845313
358,mount pearl,47.5166,-52.7813,283.62,77,100,6.69,CA,1695845314
359,mahanoro,-19.9,48.8,293.52,86,42,1.6,MG,1695845133
360,alaghsas,17.0187,8.0168,308.55,7,5,6.0,NE,1695845314
361,celendin,-6.8703,-78.1517,293.44,47,79,4.03,PE,1695845314
362,emmett,43.8735,-116.4993,294.8,39,100,5.12,US,1695845315
363,salekhard,66.53,66.6019,275.98,95,100,3.68,RU,1695845315
364,kaka,37.3482,59.6143,293.94,27,77,3.98,TM,1695845315
365,vengerovo,55.6848,76.7471,282.39,82,100,1.52,RU,1695845315
366,rumoi,43.9344,141.6428,289.76,92,100,3.56,JP,1695845316
367,ardestan,33.3761,52.3694,292.63,34,26,0.74,IR,1695845316
368,hood river,45.7054,-121.5215,293.24,72,100,5.36,US,1695845074
369,viveiro,43.6623,-7.5934,293.28,89,99,4.03,ES,1695845316
370,revda,56.801,59.9303,281.96,83,96,2.71,RU,1695845316
371,great bend,38.3645,-98.7648,302.93,38,0,2.57,US,1695845317
372,houlton,46.1262,-67.8403,294.6,58,0,0.0,US,1695845317
373,santa ana,33.7456,-117.8678,307.27,55,75,5.14,US,1695844894
374,roma,43.2128,-75.4557,294.61,43,0,5.14,US,1695845163
375,broken hill,-31.95,141.4333,282.36,63,0,4.59,AU,1695845143
376,undurkhaan,47.3194,110.6556,279.84,63,79,1.24,MN,1695845175
377,kurchum,48.5722,83.6542,280.84,48,0,2.91,KZ,1695845318
378,bardai,11.65,7.2333,300.95,57,99,3.76,NG,1695845318
379,kloulklubed,7.0419,134.2556,301.43,82,94,8.1,PW,1695845318
380,wolmaransstad,-27.1974,25.9831,283.74,58,0,3.82,ZA,1695845319
381,castro,-24.7911,-50.0119,299.46,56,40,5.26,BR,1695845319
382,sao paulo de olivenca,-3.3783,-68.8725,307.95,47,92,0.9,BR,1695845319
383,igarka,67.4667,86.5833,271.66,79,24,1.9,RU,1695845319
384,berck-plage,50.407,1.5645,295.09,68,75,3.6,FR,1695845320
385,hasaki,35.7333,140.8333,296.09,87,96,2.32,JP,1695845104
386,kiunga,-6.1219,141.2906,295.9,99,100,1.48,PG,1695845320
387,nacala,-14.5428,40.6728,297.58,80,0,2.76,MZ,1695845320
388,punta arenas,-53.15,-70.9167,278.16,60,0,2.06,CL,1695845127
389,as sulayyil,20.4607,45.5779,304.37,16,0,3.25,SA,1695845321
390,wynyard,-41.0,145.7167,284.83,87,100,4.43,AU,1695845234
391,bayside,40.8424,-124.0637,293.5,86,100,4.63,US,1695845321
392,vilyuchinsk,52.9306,158.4028,273.3,75,5,2.82,RU,1695845144
393,trapani,37.8333,12.6667,294.41,73,0,3.02,IT,1695845322
394,christchurch,-43.5333,172.6333,280.88,94,75,1.54,NZ,1695845168
395,jayapura,-2.5333,140.7,297.81,86,95,1.83,ID,1695845116
396,khorugh,37.4897,71.553,282.46,58,12,1.73,TJ,1695845322
397,el abiodh sidi cheikh,32.893,0.5484,297.22,17,0,4.57,DZ,1695845322
398,verkhnevilyuysk,63.4453,120.3167,278.85,65,98,2.8,RU,1695845323
399,cuito,-12.3833,16.9333,291.95,54,62,1.31,AO,1695845323
400,jianshui,23.6363,102.8264,292.03,97,100,1.65,CN,1695845323
401,tafuna,-14.3358,-170.72,299.54,71,100,7.16,AS,1695845323
402,tindouf,27.6711,-8.1474,308.4,12,0,4.12,DZ,1695845192
403,palmer,42.1584,-72.3287,294.4,47,40,3.09,US,1695845324
404,puerto lempira,15.2667,-83.7667,305.23,66,40,2.57,HN,1695845324
405,kolonia town,6.964,158.206,298.15,100,100,1.54,FM,1695845324
406,santa catalina,9.3337,122.8637,298.64,90,100,1.98,PH,1695845324
407,paide,58.8856,25.5572,286.64,94,85,2.32,EE,1695845325
408,les sables-d'olonne,46.6667,-1.8333,292.59,88,100,4.94,FR,1695845325
409,chamrajnagar,11.9167,76.95,294.19,87,51,1.63,IN,1695845325
410,kargil,34.5667,76.1,281.02,40,0,2.31,IN,1695845326
411,nushki,29.5542,66.0215,293.1,11,0,1.19,PK,1695845297
412,hadibu,12.65,54.0333,300.04,80,43,3.83,YE,1695845212
413,kirillov,59.863,38.3813,284.1,88,100,2.46,RU,1695845326
414,estevan,49.1334,-102.9842,290.34,72,100,4.12,CA,1695845108
415,svetlyy,54.675,20.1347,292.18,66,80,3.58,RU,1695845327
416,gilleleje,56.122,12.3106,289.82,86,91,2.68,DK,1695845327
417,gongdanglegi kulon,-8.1753,112.6359,293.84,92,100,1.44,ID,1695845327
418,uaua,-9.8414,-39.4817,307.61,23,26,2.37,BR,1695845327
419,tazacorte,28.629,-17.9293,297.69,86,20,4.63,ES,1695845328
420,ta`u,-14.2336,-169.5144,299.01,73,98,7.47,AS,1695845122
421,galliano,29.4422,-90.2992,306.15,51,0,3.09,US,1695845137
422,kidal,18.4411,1.4078,308.53,8,0,4.25,ML,1695845205
423,olyokminsk,60.3736,120.4264,278.1,79,100,1.9,RU,1695845328
424,carloforte,39.145,8.3058,295.34,79,0,4.39,IT,1695845328
425,cascais,38.6979,-9.4215,296.07,75,0,5.36,PT,1695845152
426,kayangel,8.0823,134.7173,301.06,81,100,9.17,PW,1695845329
427,hinton,53.4001,-117.5857,288.36,36,9,1.84,CA,1695844854
428,walvis bay,-22.9575,14.5053,286.53,41,0,1.06,NA,1695845204
429,yuzhno-kurilsk,44.0306,145.8556,287.74,86,100,2.74,RU,1695845128
430,uige,-7.6087,15.0613,296.26,72,44,1.23,AO,1695845330
431,whitecourt,54.1502,-115.6855,289.76,41,10,2.67,CA,1695845330
432,pil'na,55.5539,45.9219,282.83,78,0,1.88,RU,1695845330
433,hafar al-batin,28.4328,45.9708,303.12,13,0,3.65,SA,1695845330
434,bryne,58.7354,5.6477,288.12,84,0,1.03,NO,1695845331
435,gamba,-2.65,10.0,298.05,84,86,3.81,GA,1695845331
436,latehar,23.75,84.5,297.39,88,44,1.09,IN,1695845332
437,illizi,26.4833,8.4667,302.31,23,0,5.49,DZ,1695845332
438,susuman,62.7833,148.1667,270.53,98,95,1.81,RU,1695845205
439,doka,13.5167,35.7667,298.47,75,98,1.24,SD,1695845332
440,midvagur,62.0511,-7.1939,283.61,87,100,3.6,FO,1695845125
441,seydi,39.4816,62.9137,292.65,26,35,2.67,TM,1695845333
442,riohacha,11.5444,-72.9072,305.63,60,3,8.29,CO,1695845333
443,shagonar,51.5333,92.8,278.2,60,0,0.6,RU,1695845333
444,gorontalo,0.5412,123.0595,295.54,89,84,2.05,ID,1695845230
445,nagqu,31.5,92.0,273.64,81,5,1.89,CN,1695845164
446,rudbar,30.15,62.6,296.75,20,0,4.62,AF,1695845333
447,sinabang,2.4803,96.3801,298.99,84,100,2.68,ID,1695845184
448,dampit,-8.2116,112.7493,293.74,92,100,2.17,ID,1695845334
449,sittwe,20.15,92.9,300.7,87,100,2.86,MM,1695845334
450,gaspe,48.8334,-64.4819,291.62,62,3,0.59,CA,1695845222
451,upington,-28.4478,21.2561,290.36,25,0,2.06,ZA,1695845043
452,newman,37.3138,-121.0208,300.34,39,0,6.26,US,1695845335
453,angra do heroismo,38.65,-27.2167,297.49,96,40,4.02,PT,1695845108
454,sierakowice,54.3461,17.8925,290.18,57,0,2.19,PL,1695845335
455,mana,5.6592,-53.7767,302.92,72,45,5.18,GF,1695845182
456,wotho,10.1657,166.0102,300.53,83,100,4.48,MH,1695845335
457,turpan,42.9333,89.1667,293.09,30,1,1.68,CN,1695845335
458,xilin hot,43.9667,116.0333,279.07,55,11,2.08,CN,1695845123
459,villa luvianos,18.9167,-100.4,298.59,55,1,1.93,MX,1695845336
460,hugo,45.16,-92.9933,295.93,76,75,4.12,US,1695845135
461,kapa'a,22.0752,-159.319,301.14,81,98,4.47,US,1695845192
462,aur,8.1499,171.1687,301.46,76,90,3.76,MH,1695845337
463,akjoujt,19.6969,-14.4164,310.24,14,100,4.35,MR,1695845337
464,sherghati,24.5667,84.7833,300.36,76,53,1.43,IN,1695845337
465,klaksvik,62.2266,-6.589,283.66,91,100,6.42,FO,1695845337
466,i-n-salah,27.1935,2.4607,306.7,19,17,9.15,DZ,1695845338
467,carolina beach,34.0352,-77.8936,296.52,77,100,0.89,US,1695845200
468,coruripe,-10.1256,-36.1756,298.5,78,29,6.87,BR,1695845338
469,fort william,56.8165,-5.1121,286.65,95,100,1.48,GB,1695845338
470,at-bashi,41.1702,75.8106,282.11,37,70,0.24,KG,1695845338
471,omutninsk,58.67,52.1932,283.4,84,95,2.17,RU,1695845339
472,muromtsevo,56.3724,75.2418,281.13,81,100,1.38,RU,1695845339
473,adoru,6.9766,7.1627,298.8,91,83,0.57,NG,1695845339
474,bloemhof,-27.6469,25.607,284.46,43,0,1.76,ZA,1695845339
475,chimoio,-19.1164,33.4833,294.34,67,99,3.76,MZ,1695845339
476,colinas,-6.0258,-44.2492,308.27,35,61,1.0,BR,1695845340
477,aioun,16.6614,-9.6149,310.6,23,49,1.89,MR,1695845340
478,ujae,8.9322,165.7642,301.66,77,100,4.54,MH,1695845340
479,thinadhoo,0.5333,72.9333,300.77,73,100,2.38,MV,1695845184
480,port isabel,26.0734,-97.2086,310.19,58,0,7.2,US,1695845340
481,labytnangi,66.6572,66.4183,276.2,92,100,2.82,RU,1695845341
482,guerrero negro,27.9769,-114.0611,297.85,56,61,6.3,MX,1695845097
483,nassau,40.7507,-73.5829,292.96,62,20,4.63,US,1695845341
484,northport,33.229,-87.5772,304.05,55,0,4.12,US,1695845341
485,pauini,-7.7136,-66.9764,308.72,40,46,0.18,BR,1695845342
486,brookings,44.3114,-96.7984,294.36,73,100,4.12,US,1695844967
487,plesetsk,62.708,40.2916,283.69,96,100,3.43,RU,1695845342
488,bayanhongor,46.7167,100.1167,268.69,80,71,0.78,MN,1695845051
489,taro,-8.3862,115.28,295.15,91,86,1.23,ID,1695845343
490,lata,40.1629,-8.3327,293.1,86,94,1.0,PT,1695845343
491,topeka,39.0483,-95.678,302.52,47,0,2.57,US,1695845185
492,port blair,11.6667,92.75,299.74,84,100,9.5,IN,1695845343
493,khanty-mansiysk,61.0042,69.0019,282.21,93,75,3.13,RU,1695845126
494,marsh harbour,26.5412,-77.0636,301.86,67,100,3.54,BS,1695845122
495,saudarkrokur,65.7461,-19.6394,278.6,95,100,1.96,IS,1695845120
496,vila velha,-20.3297,-40.2925,302.12,78,0,7.72,BR,1695845344
497,zeya,53.75,127.2667,280.67,96,43,1.84,RU,1695845345
498,happy valley-goose bay,53.3168,-60.3315,292.32,42,75,8.75,CA,1695845095
499,maqat,47.65,53.3167,292.67,47,21,3.99,KZ,1695845345
500,dunedin,-45.8742,170.5036,280.82,86,100,4.02,NZ,1695844890
501,pimentel,-6.8367,-79.9342,298.31,61,0,7.72,PE,1695845346
502,wewak,-3.5534,143.6268,298.72,84,100,2.1,PG,1695845187
503,lethbridge,49.7,-112.8186,287.4,23,100,5.61,CA,1695845222
504,saint-joseph,-21.3667,55.6167,295.36,76,21,6.27,RE,1695845111
505,maua,-23.6678,-46.4614,298.35,89,73,5.27,BR,1695845174
506,tijucas,-27.2414,-48.6336,295.16,89,97,4.41,BR,1695845347
507,mandalgovi,45.7625,106.2708,278.83,52,95,5.19,MN,1695845347
508,beyneu,45.3167,55.2,293.89,39,4,2.89,KZ,1695845347
509,inari,68.906,27.0288,284.26,95,100,2.06,FI,1695845348
510,port said,31.2565,32.2841,300.61,70,0,6.1,EG,1695845348
511,arkhangel'sk,64.5401,40.5433,283.59,94,100,2.7,RU,1695845348
512,cidreira,-30.1811,-50.2056,288.76,77,98,8.19,BR,1695845348
513,umm ruwaba,12.9061,31.2158,301.93,59,30,2.81,SD,1695845349
514,khorixas,-20.3667,14.9667,294.75,23,0,1.79,NA,1695845349
515,devils lake,48.1128,-98.8651,292.21,72,100,5.66,US,1695845106
516,rio branco,-9.9747,-67.81,311.49,39,20,1.03,BR,1695845350
517,naantali,60.4674,22.0243,289.38,95,100,4.63,FI,1695845350
518,teshi old town,5.5836,-0.1072,299.76,83,9,4.82,GH,1695845350
519,varadero,23.1536,-81.2514,303.57,88,100,4.72,CU,1695845350
520,puerto maldonado,-12.6,-69.1833,310.37,41,20,1.54,PE,1695845350
521,valparaiso,-33.0393,-71.6273,291.95,61,0,5.14,CL,1695845351
522,crane,31.3974,-102.3501,306.46,24,0,3.4,US,1695845114
523,ust'-ilimsk,58.0006,102.6619,278.37,79,100,1.28,RU,1695845351
524,alamos,27.0167,-108.9333,312.05,27,0,2.63,MX,1695845351
525,ziro,27.6333,93.8333,286.27,96,6,1.1,IN,1695845352
526,hammerfest,70.6634,23.6821,283.4,87,20,3.6,NO,1695845352
527,mar del plata,-38.0023,-57.5575,291.22,68,0,4.12,AR,1695845150
528,matias romero,16.8833,-95.0333,305.3,49,32,6.23,MX,1695845352
529,bogale,16.2833,95.4,297.79,97,100,1.36,MM,1695845353
530,mungaa,-4.9667,34.8833,294.47,48,19,5.81,TZ,1695845353
531,charlottetown,46.2352,-63.1267,288.82,77,5,2.68,CA,1695845272
532,broome,42.2506,-75.833,295.21,55,0,2.06,US,1695845353
533,island harbour,50.724,-1.2758,290.89,84,47,3.13,GB,1695845165
534,tabou,4.423,-7.3528,298.7,90,14,3.21,CI,1695845354
535,simanggang,1.2472,111.4528,296.54,85,83,0.21,MY,1695845354
536,mejit,10.2753,170.8646,301.4,78,47,5.57,MH,1695845354
537,namanga,-2.5433,36.7905,295.02,60,14,4.99,KE,1695845354
538,muisne,0.6,-80.0333,299.03,78,85,5.41,EC,1695845355
539,katsuura,35.1333,140.3,297.09,90,16,2.77,JP,1695845199
540,arauca,7.0847,-70.7591,306.14,55,73,1.31,CO,1695845355
541,nanyang,32.9947,112.5328,291.5,90,56,1.11,CN,1695845238
542,sitka,57.0531,-135.33,285.09,94,100,6.17,US,1695845129
543,berdigestyakh,62.0989,126.6992,274.94,94,84,2.07,RU,1695845356
544,morehead city,34.7229,-76.726,296.15,81,100,5.14,US,1695845284
545,khunti,23.0833,85.2833,296.21,86,93,0.37,IN,1695845356
546,khekra,28.8667,77.2833,300.18,50,0,1.8,IN,1695845356
547,san fernando,15.0286,120.6898,300.0,94,81,1.01,PH,1695845357
548,nioki,-2.7167,17.6833,298.06,73,100,1.26,CD,1695845357
549,muynoq,43.7683,59.0214,291.03,58,0,2.62,UZ,1695845357
550,kuala belait,4.5833,114.1833,299.36,82,38,1.42,BN,1695845358
551,warman,52.3168,-106.5679,293.65,30,0,6.89,CA,1695845358
552,ust'-kut,56.7938,105.7672,278.71,83,100,0.68,RU,1695845358
553,cadale,2.7603,46.3222,299.33,86,6,6.99,SO,1695845358
554,yampil',51.95,33.7833,286.44,69,6,3.37,UA,1695845358
555,somerset,40.5668,-74.5496,294.15,56,75,2.57,US,1695845274
556,kegen,43.0197,79.2203,279.22,60,4,1.37,KZ,1695845190
557,cobija,-11.0267,-68.7692,310.25,47,40,2.06,BO,1695845176
558,san antonio oeste,-40.7319,-64.9477,294.16,20,100,8.36,AR,1695845359
559,san julian,21.0167,-102.1667,300.14,27,42,1.31,MX,1695845360
560,dalandzadgad,43.5708,104.425,284.94,31,69,3.97,MN,1695845186
561,tanout,14.9709,8.8879,308.46,8,7,3.41,NE,1695845360
562,ust'-uda,54.1742,103.0304,282.43,80,100,1.28,RU,1695845360
563,jinzhou,41.1078,121.1417,286.67,33,0,2.44,CN,1695845360
564,camarinas,43.1311,-9.1817,293.81,95,100,1.78,ES,1695845361
565,diapaga,12.0708,1.7889,302.28,62,3,4.17,BF,1695845361
566,muroto-misakicho,33.2833,134.15,298.83,83,0,3.24,JP,1695845361
567,kisangani,0.5167,25.2,295.89,94,96,2.26,CD,1695845132
568,badger,64.8,-147.5333,275.36,82,100,0.0,US,1695845097
569,powell,40.1578,-83.0752,295.15,70,100,3.6,US,1695845362
570,shihezi,44.3,86.0333,286.38,48,0,2.7,CN,1695845362
571,mungwi,-10.1732,31.3694,297.71,25,53,0.93,ZM,1695845362
572,tete,-16.1564,33.5867,304.7,28,2,3.79,MZ,1695845363
573,aitape,-3.1374,142.3475,298.65,88,92,1.41,PG,1695845363
574,mount gambier,-37.8333,140.7667,280.94,96,24,2.08,AU,1695845121
575,buka,40.8108,69.1986,293.65,26,100,1.11,UZ,1695845363
576,ndjole,-0.1783,10.7649,298.89,90,99,1.85,GA,1695845364
577,aweil,8.7682,27.4002,296.74,90,100,2.62,SS,1695845322
578,laguna,38.421,-121.4238,301.66,43,0,4.12,US,1695845109
579,samal,7.0744,125.7083,300.19,78,100,1.03,PH,1695845364
